{
  "venues":[
    {"id":"efeb7014-53d2-4cfc-81f7-9bc96b4f43ba","location":{"postalCode":"15-7530","city":"Katelynnstad"},"pricePerNightInEUR":4722,"rating":0,"capacity":18,"name":"Bosco - Walter","albumId":0},{"id":"5f6d3aa9-5b71-4cb2-8896-88117238d9de","location":{"postalCode":"37-0296","city":"Lake Elsinore"},"pricePerNightInEUR":214,"rating":1,"capacity":15,"name":"Quigley - Herzog","albumId":0},{"id":"e549bd56-5d90-4136-aa3d-86a2c2560f4b","location":{"postalCode":"68-3513","city":"Abdielcester"},"pricePerNightInEUR":1638,"rating":0.8,"capacity":10,"name":"Hegmann, Medhurst and Littel","albumId":0},{"id":"3b45f234-499e-4eee-a066-9ec1ee35594b","location":{"postalCode":"84-9930","city":"Lake Bradenshire"},"pricePerNightInEUR":396,"rating":0.8,"capacity":5,"name":"Lang and Sons","albumId":0},{"id":"49aec3cb-8b8a-46f9-a00a-e992c082fe0c","location":{"postalCode":"25-3634","city":"New Kayhaven"},"pricePerNightInEUR":2412,"rating":0.2,"capacity":17,"name":"Lynch - Hand","albumId":0},{"id":"d73178e8-8bd1-4597-accb-ffe994f89040","location":{"postalCode":"54-0250","city":"Port Riley"},"pricePerNightInEUR":739,"rating":0.4,"capacity":20,"name":"Klein - Corkery","albumId":0},{"id":"03f982f1-32a9-479d-93fd-170cb061cd4c","location":{"postalCode":"40-2916","city":"South Samsonborough"},"pricePerNightInEUR":4275,"rating":0.4,"capacity":15,"name":"Hoppe, Harber and Rolfson","albumId":0},{"id":"dacc78bf-e2f9-459f-a634-a9c414a37938","location":{"postalCode":"39-7911","city":"Fort Pattie"},"pricePerNightInEUR":2931,"rating":0.6,"capacity":10,"name":"Heller - Sanford","albumId":0},{"id":"5b07f863-3d21-422e-9e5e-023149293eb1","location":{"postalCode":"23-1853","city":"South Alvina"},"pricePerNightInEUR":2563,"rating":0.6,"capacity":9,"name":"Hessel, Hirthe and Fritsch","albumId":0},{"id":"9cb7c503-798a-46f4-a163-0e7f5a39f019","location":{"postalCode":"86-6934","city":"Port Pearline"},"pricePerNightInEUR":4905,"rating":0.7,"capacity":3,"name":"Heathcote - Smitham","albumId":0},{"id":"7f5bb0ba-904a-4136-9029-d13f52d006b4","location":{"postalCode":"70-1142","city":"Jailynbury"},"pricePerNightInEUR":1444,"rating":0.6,"capacity":15,"name":"Hahn - Orn","albumId":0},{"id":"dc0f6eb8-6614-434c-b242-0812e86ef1b1","location":{"postalCode":"95-2792","city":"West Gustave"},"pricePerNightInEUR":1039,"rating":0.3,"capacity":2,"name":"Quitzon, Hickle and Connelly","albumId":0},{"id":"744eda5d-55cd-45f0-9f02-9c86705d96bc","location":{"postalCode":"05-7132","city":"Donnystad"},"pricePerNightInEUR":2032,"rating":0.7,"capacity":6,"name":"Fritsch - Hudson","albumId":0},{"id":"af6b76b0-b647-4a27-bb96-7b95f4535af3","location":{"postalCode":"34-2718","city":"St. Charles"},"pricePerNightInEUR":3878,"rating":0,"capacity":7,"name":"O'Reilly, Schiller and Prohaska","albumId":0},{"id":"28bec152-2327-4c52-8425-55678df253e7","location":{"postalCode":"75-1657","city":"Lake Lewisburgh"},"pricePerNightInEUR":4723,"rating":0.8,"capacity":11,"name":"Thiel, Volkman and Schimmel","albumId":0},{"id":"e73260cd-2620-455f-8324-3f4805501cbd","location":{"postalCode":"54-3520","city":"Heathcotefield"},"pricePerNightInEUR":2949,"rating":0,"capacity":11,"name":"Daniel, Littel and Orn","albumId":0},{"id":"2676b7c3-e581-4704-a5c7-c4c25cb474e2","location":{"postalCode":"35-0096","city":"Wittingburgh"},"pricePerNightInEUR":2456,"rating":0.5,"capacity":3,"name":"Gutkowski and Sons","albumId":0},{"id":"63ab0509-0f6a-4867-b376-f8207ded4ed5","location":{"postalCode":"56-7309","city":"Modesto"},"pricePerNightInEUR":4371,"rating":0.7,"capacity":10,"name":"Jacobson Group","albumId":0},{"id":"12e4d8b3-6cbb-40a5-91b1-75885b619c4c","location":{"postalCode":"30-8297","city":"Desmondfield"},"pricePerNightInEUR":2661,"rating":0.3,"capacity":1,"name":"Kozey Inc","albumId":0},{"id":"38781dcd-12a8-49c2-974e-f9b52842c718","location":{"postalCode":"31-9470","city":"South Tremayneview"},"pricePerNightInEUR":4059,"rating":0.1,"capacity":6,"name":"Conn, Rempel and Jacobi","albumId":0},{"id":"3e6ff703-812d-4e86-9028-00cf4568d881","location":{"postalCode":"30-1328","city":"Beaverton"},"pricePerNightInEUR":2203,"rating":0.7,"capacity":2,"name":"Runolfsson Group","albumId":0},{"id":"04c614dc-097e-4d5e-8745-fdb42dc89757","location":{"postalCode":"11-5331","city":"Augustineberg"},"pricePerNightInEUR":2013,"rating":0.7,"capacity":17,"name":"Welch, Kshlerin and Skiles","albumId":0},{"id":"27374097-11f8-4eb0-af0c-96ea5f4d45b7","location":{"postalCode":"80-5854","city":"New Tatyanachester"},"pricePerNightInEUR":3560,"rating":1,"capacity":12,"name":"Nicolas, Waelchi and O'Conner","albumId":0},{"id":"7dff1fe7-1405-422f-a8e5-c934185739d6","location":{"postalCode":"13-2857","city":"Schinnerborough"},"pricePerNightInEUR":1004,"rating":0.4,"capacity":14,"name":"Padberg LLC","albumId":0},{"id":"9e987e22-b851-4a26-9fe4-66c624c583da","location":{"postalCode":"02-4620","city":"New Rosariofurt"},"pricePerNightInEUR":4767,"rating":0.2,"capacity":15,"name":"Upton and Sons","albumId":0},{"id":"1974671f-4551-4836-96e9-b39f41335ef4","location":{"postalCode":"38-1353","city":"Kissimmee"},"pricePerNightInEUR":1526,"rating":0.5,"capacity":5,"name":"Weber - Daugherty","albumId":0},{"id":"7bf6fe51-1cb6-4022-a136-054b2c553079","location":{"postalCode":"38-8929","city":"Lake Lesterworth"},"pricePerNightInEUR":4339,"rating":0,"capacity":19,"name":"Deckow - Muller","albumId":0},{"id":"1e03a101-e90d-48c5-a99e-af27aabd3555","location":{"postalCode":"81-2161","city":"Huntington Park"},"pricePerNightInEUR":152,"rating":0.6,"capacity":19,"name":"Kemmer, Hauck and Reilly","albumId":0},{"id":"2d00ce34-f949-4c43-b488-9c520705e2ac","location":{"postalCode":"58-6578","city":"Pharr"},"pricePerNightInEUR":2696,"rating":0.6,"capacity":20,"name":"Hegmann - Kassulke","albumId":0},{"id":"083bed92-4ed6-42e8-b02d-345badb841e7","location":{"postalCode":"23-8559","city":"Elmerhaven"},"pricePerNightInEUR":1919,"rating":0.2,"capacity":14,"name":"Rutherford Group","albumId":0},{"id":"6d62d3fa-c26e-4ad0-b3a8-7f05a623156a","location":{"postalCode":"41-2560","city":"Draper"},"pricePerNightInEUR":4891,"rating":0.5,"capacity":13,"name":"VonRueden, Murphy and Altenwerth","albumId":0},{"id":"01eff547-228e-437e-8e7e-a8e886db8bf2","location":{"postalCode":"13-8000","city":"Dexterbury"},"pricePerNightInEUR":118,"rating":0.7,"capacity":9,"name":"Mosciski LLC","albumId":0},{"id":"9bd89a12-aee7-4a8d-b16a-2f269110fa31","location":{"postalCode":"55-4842","city":"Beaverton"},"pricePerNightInEUR":2194,"rating":0.6,"capacity":5,"name":"McDermott Group","albumId":0},{"id":"ab1e561c-d130-4684-9d44-034fc4c5c930","location":{"postalCode":"47-8287","city":"Allen"},"pricePerNightInEUR":3934,"rating":0,"capacity":2,"name":"Goyette, Purdy and Hahn","albumId":0},{"id":"9654e0b3-ea9d-439b-ac4f-fb07a6ac565d","location":{"postalCode":"24-1752","city":"South Madisonton"},"pricePerNightInEUR":197,"rating":0,"capacity":7,"name":"Towne and Sons","albumId":0},{"id":"9298fc49-c58b-4c5d-ab04-30a916398fae","location":{"postalCode":"02-2377","city":"Evelynstead"},"pricePerNightInEUR":214,"rating":0.1,"capacity":5,"name":"Jacobi, Collier and Kiehn","albumId":0},{"id":"c2233897-3090-4e2e-b676-e9500a66d460","location":{"postalCode":"29-0893","city":"Johnstonview"},"pricePerNightInEUR":1573,"rating":0.8,"capacity":8,"name":"Price, Beer and Kemmer","albumId":0},{"id":"50157780-92a1-48f9-a74a-ff893529ab5f","location":{"postalCode":"66-5825","city":"West Maynardtown"},"pricePerNightInEUR":1748,"rating":1,"capacity":4,"name":"Wolff - Aufderhar","albumId":0},{"id":"f58e713d-4c4f-4d09-80ee-910147adcc4d","location":{"postalCode":"07-3779","city":"Fort Jammiecester"},"pricePerNightInEUR":4184,"rating":0.4,"capacity":17,"name":"Brown - Quitzon","albumId":0},{"id":"be821fd6-e8f7-4cb2-822e-a98eed2b3dc1","location":{"postalCode":"94-0509","city":"Schadenmouth"},"pricePerNightInEUR":2958,"rating":1,"capacity":15,"name":"Bartell, Runolfsson and Witting","albumId":0},{"id":"342b1ace-b412-4686-9eeb-d5c16a86c2bd","location":{"postalCode":"50-0460","city":"Lake Juston"},"pricePerNightInEUR":3872,"rating":0.4,"capacity":1,"name":"Kohler - Schuppe","albumId":0},{"id":"cf4aafc2-efaf-4011-a1aa-abeeafc4f6b1","location":{"postalCode":"97-3431","city":"South Kenny"},"pricePerNightInEUR":3329,"rating":0.7,"capacity":5,"name":"Carter LLC","albumId":0},{"id":"4eff03e3-d311-4ec4-ad93-70b9cdcbdbac","location":{"postalCode":"85-0369","city":"South Ivahworth"},"pricePerNightInEUR":1116,"rating":0.8,"capacity":7,"name":"Stracke Inc","albumId":0},{"id":"c91d6116-8700-47ef-9974-0cab2b9fca2a","location":{"postalCode":"29-2634","city":"Grand Forks"},"pricePerNightInEUR":1747,"rating":0.4,"capacity":2,"name":"Turcotte and Sons","albumId":0},{"id":"9a020571-7c07-4666-acaa-5eb6efe6883d","location":{"postalCode":"11-2715","city":"Addisonberg"},"pricePerNightInEUR":3346,"rating":0.5,"capacity":18,"name":"Ruecker, Bogan and Fisher","albumId":0},{"id":"aee8508c-d8a7-4ef5-a30d-dfd386065131","location":{"postalCode":"09-1974","city":"Gottliebstad"},"pricePerNightInEUR":901,"rating":1,"capacity":12,"name":"Krajcik - Klein","albumId":0},{"id":"c9c62eaa-c265-4621-98eb-84c256996647","location":{"postalCode":"67-3515","city":"Lake Nelle"},"pricePerNightInEUR":1405,"rating":0.2,"capacity":20,"name":"Zemlak LLC","albumId":0},{"id":"3600f00d-a38b-45e1-899d-74042bfce086","location":{"postalCode":"93-8842","city":"Kuhicstad"},"pricePerNightInEUR":3845,"rating":0.5,"capacity":3,"name":"Abshire - Konopelski","albumId":0},{"id":"756a0e9e-60ea-4906-9fef-a86271bd7b1b","location":{"postalCode":"21-6972","city":"Erdmanfield"},"pricePerNightInEUR":2993,"rating":0.7,"capacity":13,"name":"Bosco, Quitzon and Wolff","albumId":0},{"id":"87660b35-3204-43bf-bccb-8af47a81cdba","location":{"postalCode":"09-9172","city":"Fort Kiel"},"pricePerNightInEUR":2457,"rating":0,"capacity":19,"name":"Denesik - Streich","albumId":0}
  ],
  "venuesDetails":[
    {"id":"927091bc-f3e9-4ad5-ad43-3916f81398f6","venueId":"efeb7014-53d2-4cfc-81f7-9bc96b4f43ba","location":{"postalCode":"15-7530","city":"Katelynnstad"},"pricePerNightInEUR":4722,"rating":0,"numberOfReviews":76,"capacity":18,"name":"Bosco - Walter","albumId":0,"description":"Soluta alias assumenda sint deserunt et doloribus.\\nExplicabo odio occaecati.\\nIusto exercitationem quisquam.","features":["trustworthy","rotten","svelte","muddy"],"sleepingDetails":{"maxCapacity":3,"amountOfBeds":4},"checkInHour":"15:00","checkOutHour":"12:00","distanceFromCityCenterInKM":"2km","contactDetails":{"phone":"00-390794-047442-5","email":"Vinnie_Kirlin@yahoo.com"}},{"id":"ebbe197d-bb18-46c8-ac1b-c99a2a48a3bc","venueId":"5f6d3aa9-5b71-4cb2-8896-88117238d9de","location":{"postalCode":"37-0296","city":"Lake Elsinore"},"pricePerNightInEUR":214,"rating":1,"numberOfReviews":80,"capacity":15,"name":"Quigley - Herzog","albumId":0,"description":"At excepturi impedit velit necessitatibus.\\nOccaecati animi ratione velit harum ipsum.\\nCupiditate explicabo impedit corporis ab maiores.","features":["descriptive","admired","evil","sure-footed"],"sleepingDetails":{"maxCapacity":4,"amountOfBeds":2},"checkInHour":"15:00","checkOutHour":"12:00","distanceFromCityCenterInKM":"3km","contactDetails":{"phone":"16-968346-391222-0","email":"Bernard_Lemke@yahoo.com"}},{"id":"1e6d6efd-b88a-4d0e-86d1-bde5d8814312","venueId":"e549bd56-5d90-4136-aa3d-86a2c2560f4b","location":{"postalCode":"68-3513","city":"Abdielcester"},"pricePerNightInEUR":1638,"rating":0.8,"numberOfReviews":273,"capacity":10,"name":"Hegmann, Medhurst and Littel","albumId":0,"description":"Asperiores corporis aliquam.\\nCum unde tenetur eos minima facilis reprehenderit.\\nAccusamus amet ducimus eveniet illum molestias commodi consequuntur sit soluta.\\nEa sint temporibus assumenda magnam.","features":["gracious","third","rigid","grown"],"sleepingDetails":{"maxCapacity":2,"amountOfBeds":3},"checkInHour":"15:00","checkOutHour":"12:00","distanceFromCityCenterInKM":"3km","contactDetails":{"phone":"69-266501-246161-5","email":"Greyson.Rohan@yahoo.com"}},{"id":"976f8302-3e61-42ad-8b22-53180c743f56","venueId":"3b45f234-499e-4eee-a066-9ec1ee35594b","location":{"postalCode":"84-9930","city":"Lake Bradenshire"},"pricePerNightInEUR":396,"rating":0.8,"numberOfReviews":297,"capacity":5,"name":"Lang and Sons","albumId":0,"description":"Ipsam esse optio excepturi autem quis veritatis voluptatibus nemo.\\nMolestiae dolore totam consectetur sapiente nemo suscipit accusantium.\\nNulla ex officia pariatur non odio.\\nPraesentium dignissimos architecto facilis.\\nTemporibus minus magni eius ducimus minima vel repellendus deleniti.","features":["cheap","unwilling","defenseless","portly"],"sleepingDetails":{"maxCapacity":4,"amountOfBeds":4},"checkInHour":"15:00","checkOutHour":"12:00","distanceFromCityCenterInKM":"3km","contactDetails":{"phone":"74-648185-335895-1","email":"Luella_Morissette@yahoo.com"}},{"id":"44e912ed-a685-4729-85b7-7515b2a736a9","venueId":"49aec3cb-8b8a-46f9-a00a-e992c082fe0c","location":{"postalCode":"25-3634","city":"New Kayhaven"},"pricePerNightInEUR":2412,"rating":0.2,"numberOfReviews":104,"capacity":17,"name":"Lynch - Hand","albumId":0,"description":"Beatae excepturi modi ullam velit eveniet quas molestias.\\nModi nostrum error quod est eveniet debitis vero ratione.\\nExcepturi eveniet est maiores quam.\\nPerferendis nostrum reiciendis eligendi sed.","features":["shy","compassionate","thorough","authentic"],"sleepingDetails":{"maxCapacity":3,"amountOfBeds":3},"checkInHour":"15:00","checkOutHour":"12:00","distanceFromCityCenterInKM":"10km","contactDetails":{"phone":"31-450079-659287-1","email":"Mikayla.Feil39@hotmail.com"}},{"id":"a04d2803-46fd-480b-9380-0025521afe19","venueId":"d73178e8-8bd1-4597-accb-ffe994f89040","location":{"postalCode":"54-0250","city":"Port Riley"},"pricePerNightInEUR":739,"rating":0.4,"numberOfReviews":73,"capacity":20,"name":"Klein - Corkery","albumId":0,"description":"Totam sed sunt tempora non iure et.\\nEst asperiores aspernatur.\\nNesciunt ea aspernatur doloremque quo deleniti nostrum facilis quos.\\nSed nam adipisci enim quidem voluptatibus.\\nFuga quasi quis officia eum earum excepturi maiores totam.","features":["discrete","inferior","devoted","quizzical"],"sleepingDetails":{"maxCapacity":4,"amountOfBeds":3},"checkInHour":"15:00","checkOutHour":"12:00","distanceFromCityCenterInKM":"4km","contactDetails":{"phone":"24-578655-035452-5","email":"Bulah.Hayes@gmail.com"}},{"id":"32f08e6b-9596-4659-a3e6-980ae8baadff","venueId":"03f982f1-32a9-479d-93fd-170cb061cd4c","location":{"postalCode":"40-2916","city":"South Samsonborough"},"pricePerNightInEUR":4275,"rating":0.4,"numberOfReviews":122,"capacity":15,"name":"Hoppe, Harber and Rolfson","albumId":0,"description":"Doloribus harum exercitationem sed expedita.\\nNesciunt tempore doloremque soluta veniam.\\nNulla distinctio similique delectus pariatur mollitia iusto distinctio.\\nTemporibus repellendus non rem.","features":["vigorous","stable","coordinated","quick-witted"],"sleepingDetails":{"maxCapacity":3,"amountOfBeds":4},"checkInHour":"15:00","checkOutHour":"12:00","distanceFromCityCenterInKM":"4km","contactDetails":{"phone":"05-757536-623287-7","email":"Anissa_Robel@yahoo.com"}},{"id":"cb7bba01-b739-47ef-8d25-e261ac36482e","venueId":"dacc78bf-e2f9-459f-a634-a9c414a37938","location":{"postalCode":"39-7911","city":"Fort Pattie"},"pricePerNightInEUR":2931,"rating":0.6,"numberOfReviews":121,"capacity":10,"name":"Heller - Sanford","albumId":0,"description":"Necessitatibus ex labore.\\nExercitationem nisi aspernatur facere.\\nExplicabo sunt quo dolorem minima cupiditate quos consequuntur necessitatibus.","features":["spicy","lined","simple","charming"],"sleepingDetails":{"maxCapacity":2,"amountOfBeds":3},"checkInHour":"15:00","checkOutHour":"12:00","distanceFromCityCenterInKM":"9km","contactDetails":{"phone":"74-709608-773362-8","email":"Michel.Bradtke@gmail.com"}},{"id":"200dea7c-da20-468b-bdc8-4ca951701713","venueId":"5b07f863-3d21-422e-9e5e-023149293eb1","location":{"postalCode":"23-1853","city":"South Alvina"},"pricePerNightInEUR":2563,"rating":0.6,"numberOfReviews":72,"capacity":9,"name":"Hessel, Hirthe and Fritsch","albumId":0,"description":"Quo eveniet mollitia quaerat quaerat.\\nDolores laboriosam provident ipsa eveniet nam.\\nEx veritatis atque ex perferendis recusandae consequuntur provident vel repellat.\\nQui voluptatem voluptatibus.\\nIllum ratione voluptatibus enim.","features":["triangular","assured","wrathful","tricky"],"sleepingDetails":{"maxCapacity":2,"amountOfBeds":4},"checkInHour":"15:00","checkOutHour":"12:00","distanceFromCityCenterInKM":"9km","contactDetails":{"phone":"23-597795-739705-8","email":"Jaylan83@hotmail.com"}},{"id":"7702d64f-77f6-423e-a37c-b5bdb44c3542","venueId":"9cb7c503-798a-46f4-a163-0e7f5a39f019","location":{"postalCode":"86-6934","city":"Port Pearline"},"pricePerNightInEUR":4905,"rating":0.7,"numberOfReviews":156,"capacity":3,"name":"Heathcote - Smitham","albumId":0,"description":"Sequi ipsam maiores aliquid accusamus similique architecto animi.\\nInventore modi assumenda reiciendis eos.\\nInventore aliquid labore explicabo labore laborum velit.\\nNatus et eius perspiciatis ipsa voluptas quasi ipsa aperiam vero.\\nReiciendis consequuntur vitae.","features":["faint","unequaled","impish","instructive"],"sleepingDetails":{"maxCapacity":1,"amountOfBeds":1},"checkInHour":"15:00","checkOutHour":"12:00","distanceFromCityCenterInKM":"5km","contactDetails":{"phone":"45-848491-430657-9","email":"Braden_Corwin78@gmail.com"}},{"id":"b2deee22-3db6-42bd-a148-007c1fa26037","venueId":"7f5bb0ba-904a-4136-9029-d13f52d006b4","location":{"postalCode":"70-1142","city":"Jailynbury"},"pricePerNightInEUR":1444,"rating":0.6,"numberOfReviews":60,"capacity":15,"name":"Hahn - Orn","albumId":0,"description":"Reprehenderit illum quidem id sapiente.\\nRem neque dicta cum.\\nVel labore ipsum ipsa accusantium.\\nIncidunt amet praesentium quae aliquam molestiae temporibus.\\nIste consectetur iure nobis et vitae enim amet voluptatem.","features":["foolhardy","which","defenseless","classic"],"sleepingDetails":{"maxCapacity":2,"amountOfBeds":3},"checkInHour":"15:00","checkOutHour":"12:00","distanceFromCityCenterInKM":"7km","contactDetails":{"phone":"68-531149-920764-8","email":"Jason69@hotmail.com"}},{"id":"331d3eaa-9864-4be9-a477-ac69e46b70d9","venueId":"dc0f6eb8-6614-434c-b242-0812e86ef1b1","location":{"postalCode":"95-2792","city":"West Gustave"},"pricePerNightInEUR":1039,"rating":0.3,"numberOfReviews":289,"capacity":2,"name":"Quitzon, Hickle and Connelly","albumId":0,"description":"Tempore placeat rem quae.\\nAmet esse quia architecto dignissimos sapiente autem.\\nDolore qui hic omnis aut velit aliquam.\\nLabore explicabo similique qui perspiciatis modi saepe minus.","features":["imaginary","our","spectacular","closed"],"sleepingDetails":{"maxCapacity":4,"amountOfBeds":1},"checkInHour":"15:00","checkOutHour":"12:00","distanceFromCityCenterInKM":"2km","contactDetails":{"phone":"48-319534-729000-3","email":"Ivy.McDermott-Hettinger3@hotmail.com"}},{"id":"49596cae-3a5b-47b6-ae44-e483e146d1c1","venueId":"744eda5d-55cd-45f0-9f02-9c86705d96bc","location":{"postalCode":"05-7132","city":"Donnystad"},"pricePerNightInEUR":2032,"rating":0.7,"numberOfReviews":104,"capacity":6,"name":"Fritsch - Hudson","albumId":0,"description":"Corporis numquam eius ea temporibus perferendis sed pariatur neque.\\nId excepturi esse velit facilis impedit.\\nConsequatur aut sed.","features":["selfish","dual","fatal","querulous"],"sleepingDetails":{"maxCapacity":1,"amountOfBeds":2},"checkInHour":"15:00","checkOutHour":"12:00","distanceFromCityCenterInKM":"2km","contactDetails":{"phone":"13-428530-403970-0","email":"Reginald_Wehner@yahoo.com"}},{"id":"84acdd46-a3f6-4092-baf4-fbf10429cb43","venueId":"af6b76b0-b647-4a27-bb96-7b95f4535af3","location":{"postalCode":"34-2718","city":"St. Charles"},"pricePerNightInEUR":3878,"rating":0,"numberOfReviews":69,"capacity":7,"name":"O'Reilly, Schiller and Prohaska","albumId":0,"description":"At eveniet ratione adipisci.\\nAliquam doloremque ad occaecati quis.\\nInventore atque debitis cum a ipsa qui neque accusamus.","features":["unpleasant","roasted","zigzag","agile"],"sleepingDetails":{"maxCapacity":3,"amountOfBeds":3},"checkInHour":"15:00","checkOutHour":"12:00","distanceFromCityCenterInKM":"9km","contactDetails":{"phone":"61-317801-620687-5","email":"Shana.King@hotmail.com"}},{"id":"63529e71-e385-4607-8306-5f7e7cac6518","venueId":"28bec152-2327-4c52-8425-55678df253e7","location":{"postalCode":"75-1657","city":"Lake Lewisburgh"},"pricePerNightInEUR":4723,"rating":0.8,"numberOfReviews":32,"capacity":11,"name":"Thiel, Volkman and Schimmel","albumId":0,"description":"Ipsam perferendis sequi corrupti esse.\\nCorporis quae aliquid est iure.\\nSunt voluptate veritatis doloribus consectetur ea ut quia sequi.\\nUnde repudiandae minus molestiae quasi fugit vero eius illum tempore.\\nNostrum vero nemo ab ex sint ducimus.","features":["faint","dangerous","vivid","hideous"],"sleepingDetails":{"maxCapacity":1,"amountOfBeds":3},"checkInHour":"15:00","checkOutHour":"12:00","distanceFromCityCenterInKM":"8km","contactDetails":{"phone":"54-233324-145497-4","email":"Deon.Rosenbaum65@gmail.com"}},{"id":"b94304eb-50cc-4884-b1e0-c56a1e0054a8","venueId":"e73260cd-2620-455f-8324-3f4805501cbd","location":{"postalCode":"54-3520","city":"Heathcotefield"},"pricePerNightInEUR":2949,"rating":0,"numberOfReviews":268,"capacity":11,"name":"Daniel, Littel and Orn","albumId":0,"description":"Esse voluptates illo quod reprehenderit nam tempore voluptatibus provident placeat.\\nAutem doloribus iste explicabo fugiat tenetur magni ex.\\nAutem iusto ipsum voluptatibus sint occaecati illum quas.\\nTempora temporibus mollitia optio incidunt vel ipsa ipsa eius ab.","features":["crushing","knowing","adolescent","complete"],"sleepingDetails":{"maxCapacity":4,"amountOfBeds":1},"checkInHour":"15:00","checkOutHour":"12:00","distanceFromCityCenterInKM":"10km","contactDetails":{"phone":"59-490562-028092-7","email":"Angelo.Waelchi97@yahoo.com"}},{"id":"b1a4c711-5ce1-4ad6-b5d4-d6b291ab89dc","venueId":"2676b7c3-e581-4704-a5c7-c4c25cb474e2","location":{"postalCode":"35-0096","city":"Wittingburgh"},"pricePerNightInEUR":2456,"rating":0.5,"numberOfReviews":170,"capacity":3,"name":"Gutkowski and Sons","albumId":0,"description":"Quod quidem nam dignissimos.\\nNam odit dolor rem tempore id.\\nCumque necessitatibus placeat quibusdam distinctio necessitatibus.\\nMaxime facilis eum iure pariatur inventore pariatur minima at voluptatem.","features":["well-worn","lavish","icy","actual"],"sleepingDetails":{"maxCapacity":1,"amountOfBeds":3},"checkInHour":"15:00","checkOutHour":"12:00","distanceFromCityCenterInKM":"2km","contactDetails":{"phone":"16-182048-193977-1","email":"Yvette_Paucek@yahoo.com"}},{"id":"787536ab-9719-4a2d-9894-661b07e98ed5","venueId":"63ab0509-0f6a-4867-b376-f8207ded4ed5","location":{"postalCode":"56-7309","city":"Modesto"},"pricePerNightInEUR":4371,"rating":0.7,"numberOfReviews":120,"capacity":10,"name":"Jacobson Group","albumId":0,"description":"Rem ab inventore error corporis blanditiis deserunt occaecati culpa.\\nAsperiores deserunt ut asperiores.\\nRepellat neque harum sint.","features":["agile","open","grizzled","finished"],"sleepingDetails":{"maxCapacity":3,"amountOfBeds":1},"checkInHour":"15:00","checkOutHour":"12:00","distanceFromCityCenterInKM":"5km","contactDetails":{"phone":"75-843994-536397-0","email":"Kristopher.Reinger33@hotmail.com"}},{"id":"c4f9e6f1-3785-4038-9d0e-ff20adb96208","venueId":"12e4d8b3-6cbb-40a5-91b1-75885b619c4c","location":{"postalCode":"30-8297","city":"Desmondfield"},"pricePerNightInEUR":2661,"rating":0.3,"numberOfReviews":153,"capacity":1,"name":"Kozey Inc","albumId":0,"description":"Voluptas provident commodi iusto.\\nLaboriosam sapiente sint provident excepturi.\\nEos explicabo nam similique quos quidem veniam eaque maiores maiores.\\nNecessitatibus assumenda nesciunt repellat.","features":["flustered","mammoth","frightening","ripe"],"sleepingDetails":{"maxCapacity":1,"amountOfBeds":4},"checkInHour":"15:00","checkOutHour":"12:00","distanceFromCityCenterInKM":"9km","contactDetails":{"phone":"99-961350-503050-5","email":"Vince95@yahoo.com"}},{"id":"3d1bf900-1e36-419d-bea4-7ce8abb15523","venueId":"38781dcd-12a8-49c2-974e-f9b52842c718","location":{"postalCode":"31-9470","city":"South Tremayneview"},"pricePerNightInEUR":4059,"rating":0.1,"numberOfReviews":182,"capacity":6,"name":"Conn, Rempel and Jacobi","albumId":0,"description":"Modi odio eveniet blanditiis possimus veritatis deserunt.\\nMollitia autem magnam voluptate fugit aspernatur dolor repellat ullam.\\nRecusandae expedita mollitia quaerat vitae unde similique molestiae perspiciatis fuga.\\nQuae error quibusdam ut molestias dignissimos error a molestiae.\\nLaborum officia quas quod quam voluptatem porro voluptates.","features":["tall","scaly","silky","trustworthy"],"sleepingDetails":{"maxCapacity":4,"amountOfBeds":1},"checkInHour":"15:00","checkOutHour":"12:00","distanceFromCityCenterInKM":"10km","contactDetails":{"phone":"63-202539-037011-5","email":"Jany_Tillman35@yahoo.com"}},{"id":"690698b1-a182-4c6c-81af-90ad970cf780","venueId":"3e6ff703-812d-4e86-9028-00cf4568d881","location":{"postalCode":"30-1328","city":"Beaverton"},"pricePerNightInEUR":2203,"rating":0.7,"numberOfReviews":19,"capacity":2,"name":"Runolfsson Group","albumId":0,"description":"Eius ipsum est modi atque dolor ad.\\nIpsum eum animi excepturi rem quaerat nostrum accusamus nesciunt non.\\nVitae sed dolore.\\nNostrum neque sequi non culpa nihil officia.\\nDolor adipisci nobis praesentium possimus rerum nulla ut quas.","features":["grim","gracious","grown","colorful"],"sleepingDetails":{"maxCapacity":3,"amountOfBeds":1},"checkInHour":"15:00","checkOutHour":"12:00","distanceFromCityCenterInKM":"6km","contactDetails":{"phone":"38-683599-098645-0","email":"Braulio.Sauer@yahoo.com"}},{"id":"a46178b3-b1f0-40c7-85bc-8adc6155a5a1","venueId":"04c614dc-097e-4d5e-8745-fdb42dc89757","location":{"postalCode":"11-5331","city":"Augustineberg"},"pricePerNightInEUR":2013,"rating":0.7,"numberOfReviews":2,"capacity":17,"name":"Welch, Kshlerin and Skiles","albumId":0,"description":"Quae nobis error reiciendis culpa provident voluptate unde magnam natus.\\nHic praesentium autem qui numquam aut voluptatem itaque sed quasi.\\nPerspiciatis sapiente accusamus dolorum ipsa.\\nVeritatis ratione facere perferendis omnis fugit aut minima.\\nOdit distinctio suscipit necessitatibus tempora ex exercitationem explicabo.","features":["distinct","young","sugary","ugly"],"sleepingDetails":{"maxCapacity":3,"amountOfBeds":2},"checkInHour":"15:00","checkOutHour":"12:00","distanceFromCityCenterInKM":"10km","contactDetails":{"phone":"55-317550-182125-1","email":"Alfreda.Schuppe@hotmail.com"}},{"id":"ec8588c0-01f3-483f-a48c-3dd4662fe5ad","venueId":"27374097-11f8-4eb0-af0c-96ea5f4d45b7","location":{"postalCode":"80-5854","city":"New Tatyanachester"},"pricePerNightInEUR":3560,"rating":1,"numberOfReviews":150,"capacity":12,"name":"Nicolas, Waelchi and O'Conner","albumId":0,"description":"Quo aut totam magnam nisi harum quaerat.\\nEt ducimus ducimus.\\nSuscipit aliquam asperiores sit voluptatem quod tempora odit.","features":["actual","informal","black","necessary"],"sleepingDetails":{"maxCapacity":4,"amountOfBeds":1},"checkInHour":"15:00","checkOutHour":"12:00","distanceFromCityCenterInKM":"10km","contactDetails":{"phone":"04-435572-239086-7","email":"Kraig14@yahoo.com"}},{"id":"c6bd335e-76b3-42d1-95dd-69268f5a856e","venueId":"7dff1fe7-1405-422f-a8e5-c934185739d6","location":{"postalCode":"13-2857","city":"Schinnerborough"},"pricePerNightInEUR":1004,"rating":0.4,"numberOfReviews":257,"capacity":14,"name":"Padberg LLC","albumId":0,"description":"Praesentium optio exercitationem nemo numquam blanditiis aperiam culpa vero.\\nNihil tenetur corrupti natus ad deleniti minus unde.\\nLaborum numquam ex nemo laborum perferendis sequi eos laborum ut.\\nDoloribus quos consequatur eum quam ut deserunt laborum ab.\\nNecessitatibus adipisci delectus architecto ad non.","features":["blushing","sweltering","upbeat","experienced"],"sleepingDetails":{"maxCapacity":2,"amountOfBeds":4},"checkInHour":"15:00","checkOutHour":"12:00","distanceFromCityCenterInKM":"5km","contactDetails":{"phone":"70-397953-738266-0","email":"Maryse.Monahan@yahoo.com"}},{"id":"69d9dfe2-d503-4633-924e-b74f940238c7","venueId":"9e987e22-b851-4a26-9fe4-66c624c583da","location":{"postalCode":"02-4620","city":"New Rosariofurt"},"pricePerNightInEUR":4767,"rating":0.2,"numberOfReviews":16,"capacity":15,"name":"Upton and Sons","albumId":0,"description":"Consequuntur reiciendis temporibus ut sequi ad quas.\\nQuae totam animi.\\nSint iste est repudiandae eaque itaque.\\nOptio aliquam corrupti vel.\\nError beatae dolores.","features":["imaginary","steel","sick","elegant"],"sleepingDetails":{"maxCapacity":2,"amountOfBeds":3},"checkInHour":"15:00","checkOutHour":"12:00","distanceFromCityCenterInKM":"9km","contactDetails":{"phone":"42-593547-120784-9","email":"Alaina3@gmail.com"}},{"id":"9329882e-24a7-40c9-99ab-7bd870e3ccee","venueId":"1974671f-4551-4836-96e9-b39f41335ef4","location":{"postalCode":"38-1353","city":"Kissimmee"},"pricePerNightInEUR":1526,"rating":0.5,"numberOfReviews":124,"capacity":5,"name":"Weber - Daugherty","albumId":0,"description":"Quibusdam tempora commodi saepe itaque eius commodi suscipit.\\nPariatur modi alias fugiat distinctio aliquam atque enim eligendi.\\nReprehenderit impedit at.\\nDeserunt explicabo ipsa minus corporis.\\nRerum quod odit aut.","features":["right","digital","altruistic","mealy"],"sleepingDetails":{"maxCapacity":1,"amountOfBeds":2},"checkInHour":"15:00","checkOutHour":"12:00","distanceFromCityCenterInKM":"2km","contactDetails":{"phone":"49-363234-777501-1","email":"Jaeden.Greenfelder@gmail.com"}},{"id":"033473f0-1859-482d-88cc-e836d8a84388","venueId":"7bf6fe51-1cb6-4022-a136-054b2c553079","location":{"postalCode":"38-8929","city":"Lake Lesterworth"},"pricePerNightInEUR":4339,"rating":0,"numberOfReviews":22,"capacity":19,"name":"Deckow - Muller","albumId":0,"description":"Laborum nihil illum rerum adipisci voluptate atque est illum.\\nNulla vel et pariatur quo libero ea possimus laboriosam.\\nTempora ad at minima.","features":["bubbly","visible","responsible","tan"],"sleepingDetails":{"maxCapacity":4,"amountOfBeds":4},"checkInHour":"15:00","checkOutHour":"12:00","distanceFromCityCenterInKM":"2km","contactDetails":{"phone":"11-960432-253700-9","email":"Luella_Schmeler@hotmail.com"}},{"id":"8b4575c4-ed49-4683-8e04-afd574881592","venueId":"1e03a101-e90d-48c5-a99e-af27aabd3555","location":{"postalCode":"81-2161","city":"Huntington Park"},"pricePerNightInEUR":152,"rating":0.6,"numberOfReviews":236,"capacity":19,"name":"Kemmer, Hauck and Reilly","albumId":0,"description":"Suscipit minus ducimus ea.\\nAmet sint facilis nostrum quis rerum reiciendis ea.\\nQuaerat mollitia eum adipisci enim repellat.\\nNesciunt quod dolor hic a vitae.","features":["solid","productive","safe","scary"],"sleepingDetails":{"maxCapacity":2,"amountOfBeds":4},"checkInHour":"15:00","checkOutHour":"12:00","distanceFromCityCenterInKM":"4km","contactDetails":{"phone":"10-078476-745353-1","email":"Stanford.Reichel@gmail.com"}},{"id":"235a0d21-403a-451b-87ce-aaf0d9ad3b3e","venueId":"2d00ce34-f949-4c43-b488-9c520705e2ac","location":{"postalCode":"58-6578","city":"Pharr"},"pricePerNightInEUR":2696,"rating":0.6,"numberOfReviews":83,"capacity":20,"name":"Hegmann - Kassulke","albumId":0,"description":"Rerum blanditiis distinctio molestias eveniet blanditiis placeat.\\nAd quis asperiores reiciendis eum ea dolore.\\nDolorem dolorem eos amet quis.\\nSaepe mollitia fugit est.","features":["quintessential","present","ambitious","superb"],"sleepingDetails":{"maxCapacity":4,"amountOfBeds":3},"checkInHour":"15:00","checkOutHour":"12:00","distanceFromCityCenterInKM":"5km","contactDetails":{"phone":"33-319957-844673-2","email":"Loy_Powlowski96@hotmail.com"}},{"id":"41537adf-ab31-411a-a8c0-87cc0eba3851","venueId":"083bed92-4ed6-42e8-b02d-345badb841e7","location":{"postalCode":"23-8559","city":"Elmerhaven"},"pricePerNightInEUR":1919,"rating":0.2,"numberOfReviews":255,"capacity":14,"name":"Rutherford Group","albumId":0,"description":"Repudiandae vel ratione.\\nOfficiis eveniet inventore asperiores unde ea nisi vero.\\nPlaceat eligendi error culpa distinctio.","features":["impassioned","guilty","this","overcooked"],"sleepingDetails":{"maxCapacity":4,"amountOfBeds":3},"checkInHour":"15:00","checkOutHour":"12:00","distanceFromCityCenterInKM":"1km","contactDetails":{"phone":"39-006500-935768-3","email":"Hassie_Parisian@hotmail.com"}},{"id":"8d962886-d416-4da4-ab64-fd94ff4c5064","venueId":"6d62d3fa-c26e-4ad0-b3a8-7f05a623156a","location":{"postalCode":"41-2560","city":"Draper"},"pricePerNightInEUR":4891,"rating":0.5,"numberOfReviews":270,"capacity":13,"name":"VonRueden, Murphy and Altenwerth","albumId":0,"description":"Ullam eius dignissimos eaque.\\nAt officia iusto mollitia hic veniam suscipit reprehenderit numquam corporis.\\nAliquam soluta delectus ut.","features":["wee","optimal","timely","stimulating"],"sleepingDetails":{"maxCapacity":1,"amountOfBeds":3},"checkInHour":"15:00","checkOutHour":"12:00","distanceFromCityCenterInKM":"10km","contactDetails":{"phone":"44-774788-379021-1","email":"Reilly_Berge@yahoo.com"}},{"id":"bcf875a7-ccc8-428b-a389-378f90248922","venueId":"01eff547-228e-437e-8e7e-a8e886db8bf2","location":{"postalCode":"13-8000","city":"Dexterbury"},"pricePerNightInEUR":118,"rating":0.7,"numberOfReviews":178,"capacity":9,"name":"Mosciski LLC","albumId":0,"description":"Minima aspernatur totam harum incidunt officia maxime impedit at.\\nAd voluptatibus fugiat excepturi molestias animi incidunt.\\nExercitationem neque ratione nihil.\\nArchitecto eaque explicabo incidunt.","features":["past","grateful","masculine","thankful"],"sleepingDetails":{"maxCapacity":2,"amountOfBeds":3},"checkInHour":"15:00","checkOutHour":"12:00","distanceFromCityCenterInKM":"6km","contactDetails":{"phone":"12-649415-841194-6","email":"Alyson_Hartmann@hotmail.com"}},{"id":"3bad3f94-63d5-41b1-9f48-d51d20cf3732","venueId":"9bd89a12-aee7-4a8d-b16a-2f269110fa31","location":{"postalCode":"55-4842","city":"Beaverton"},"pricePerNightInEUR":2194,"rating":0.6,"numberOfReviews":77,"capacity":5,"name":"McDermott Group","albumId":0,"description":"Non laborum sunt eius enim culpa iure ipsum.\\nPorro dolores totam magnam veniam.\\nTempore hic ipsa ad.","features":["shimmering","aged","alive","better"],"sleepingDetails":{"maxCapacity":4,"amountOfBeds":2},"checkInHour":"15:00","checkOutHour":"12:00","distanceFromCityCenterInKM":"4km","contactDetails":{"phone":"18-702034-002399-6","email":"Jermaine_Runolfsdottir-Kovacek@hotmail.com"}},{"id":"346a44ea-5e34-47c1-a900-4a9aa1d57029","venueId":"ab1e561c-d130-4684-9d44-034fc4c5c930","location":{"postalCode":"47-8287","city":"Allen"},"pricePerNightInEUR":3934,"rating":0,"numberOfReviews":27,"capacity":2,"name":"Goyette, Purdy and Hahn","albumId":0,"description":"Velit iusto provident minima dolor culpa optio quas voluptate reprehenderit.\\nDicta atque aperiam tenetur eligendi consequatur facilis.\\nNisi numquam laborum placeat doloremque reprehenderit reiciendis.\\nCulpa hic pariatur nemo laborum fugit nostrum earum eius.\\nDolorem deserunt cum ratione.","features":["conventional","educated","neat","sophisticated"],"sleepingDetails":{"maxCapacity":2,"amountOfBeds":2},"checkInHour":"15:00","checkOutHour":"12:00","distanceFromCityCenterInKM":"7km","contactDetails":{"phone":"36-748356-958898-6","email":"Enrique_Volkman@yahoo.com"}},{"id":"e5efbd69-ce77-4fcf-902a-1a79c7ba2c46","venueId":"9654e0b3-ea9d-439b-ac4f-fb07a6ac565d","location":{"postalCode":"24-1752","city":"South Madisonton"},"pricePerNightInEUR":197,"rating":0,"numberOfReviews":92,"capacity":7,"name":"Towne and Sons","albumId":0,"description":"Rem dolores ut perferendis.\\nReiciendis iste quibusdam perspiciatis nulla quasi.\\nOdit repellat consequatur voluptatem voluptas quos temporibus similique vel.","features":["striped","improbable","spirited","bad"],"sleepingDetails":{"maxCapacity":3,"amountOfBeds":2},"checkInHour":"15:00","checkOutHour":"12:00","distanceFromCityCenterInKM":"2km","contactDetails":{"phone":"68-991238-197288-8","email":"Ava9@hotmail.com"}},{"id":"6700518c-7438-4c5f-b736-b2b98b630fe1","venueId":"9298fc49-c58b-4c5d-ab04-30a916398fae","location":{"postalCode":"02-2377","city":"Evelynstead"},"pricePerNightInEUR":214,"rating":0.1,"numberOfReviews":222,"capacity":5,"name":"Jacobi, Collier and Kiehn","albumId":0,"description":"Iusto minima autem voluptatibus velit quidem corporis voluptate dolorem.\\nMollitia beatae nisi.\\nLaudantium explicabo laudantium mollitia earum.\\nSapiente dolor reiciendis accusantium temporibus hic totam perferendis veniam.\\nQuo optio quibusdam eum atque numquam nobis numquam rem deserunt.","features":["negative","creamy","caring","kaleidoscopic"],"sleepingDetails":{"maxCapacity":1,"amountOfBeds":4},"checkInHour":"15:00","checkOutHour":"12:00","distanceFromCityCenterInKM":"2km","contactDetails":{"phone":"69-684673-432917-5","email":"Vena.Barton31@yahoo.com"}},{"id":"60a67068-c164-45e5-acf0-398353003ba8","venueId":"c2233897-3090-4e2e-b676-e9500a66d460","location":{"postalCode":"29-0893","city":"Johnstonview"},"pricePerNightInEUR":1573,"rating":0.8,"numberOfReviews":173,"capacity":8,"name":"Price, Beer and Kemmer","albumId":0,"description":"Dicta rem quam.\\nCum consequuntur provident natus ipsum quos ad dolorum dolore.\\nPorro exercitationem dolorum.\\nTotam iusto pariatur repellat.","features":["silver","rectangular","well-worn","giant"],"sleepingDetails":{"maxCapacity":3,"amountOfBeds":1},"checkInHour":"15:00","checkOutHour":"12:00","distanceFromCityCenterInKM":"7km","contactDetails":{"phone":"70-979009-524093-3","email":"Camila_Johns49@yahoo.com"}},{"id":"8477c780-0d50-4a77-a4fa-3fcbf72ecfc4","venueId":"50157780-92a1-48f9-a74a-ff893529ab5f","location":{"postalCode":"66-5825","city":"West Maynardtown"},"pricePerNightInEUR":1748,"rating":1,"numberOfReviews":49,"capacity":4,"name":"Wolff - Aufderhar","albumId":0,"description":"Iusto commodi autem maxime placeat.\\nOdio consectetur iste quibusdam consectetur occaecati.\\nDignissimos voluptas aut.\\nMaiores officiis ratione harum ut ipsa molestias.","features":["fabulous","medical","overcooked","soggy"],"sleepingDetails":{"maxCapacity":2,"amountOfBeds":1},"checkInHour":"15:00","checkOutHour":"12:00","distanceFromCityCenterInKM":"1km","contactDetails":{"phone":"48-213073-205076-2","email":"Raymond.Schiller@hotmail.com"}},{"id":"7e41c178-cd23-4456-9196-fbbd9c22119e","venueId":"f58e713d-4c4f-4d09-80ee-910147adcc4d","location":{"postalCode":"07-3779","city":"Fort Jammiecester"},"pricePerNightInEUR":4184,"rating":0.4,"numberOfReviews":231,"capacity":17,"name":"Brown - Quitzon","albumId":0,"description":"Tempora omnis nesciunt.\\nTotam fugit facere fugit cupiditate.\\nDolorem voluptates cumque provident commodi ducimus quia voluptatibus.","features":["jaunty","present","thick","beautiful"],"sleepingDetails":{"maxCapacity":1,"amountOfBeds":1},"checkInHour":"15:00","checkOutHour":"12:00","distanceFromCityCenterInKM":"9km","contactDetails":{"phone":"86-211892-082149-0","email":"Furman4@yahoo.com"}},{"id":"a7c4d56d-661e-4676-b87e-7e27bff2e5ab","venueId":"be821fd6-e8f7-4cb2-822e-a98eed2b3dc1","location":{"postalCode":"94-0509","city":"Schadenmouth"},"pricePerNightInEUR":2958,"rating":1,"numberOfReviews":233,"capacity":15,"name":"Bartell, Runolfsson and Witting","albumId":0,"description":"Autem officiis illo corrupti nihil nisi minus quibusdam incidunt.\\nAssumenda ut possimus quisquam animi eligendi excepturi inventore vitae sit.\\nTemporibus perspiciatis odio provident.","features":["oblong","cautious","aching","dim"],"sleepingDetails":{"maxCapacity":2,"amountOfBeds":4},"checkInHour":"15:00","checkOutHour":"12:00","distanceFromCityCenterInKM":"7km","contactDetails":{"phone":"38-251148-545732-3","email":"Emerson_Dach@hotmail.com"}},{"id":"612c83c8-d23b-4676-809a-d7413430af02","venueId":"342b1ace-b412-4686-9eeb-d5c16a86c2bd","location":{"postalCode":"50-0460","city":"Lake Juston"},"pricePerNightInEUR":3872,"rating":0.4,"numberOfReviews":123,"capacity":1,"name":"Kohler - Schuppe","albumId":0,"description":"Dicta quam explicabo.\\nLaboriosam iste voluptas pariatur maxime molestias eligendi harum quidem.\\nDistinctio animi omnis asperiores cupiditate delectus deleniti ducimus saepe earum.\\nIusto a incidunt consequuntur harum.","features":["understated","biodegradable","aged","jovial"],"sleepingDetails":{"maxCapacity":3,"amountOfBeds":2},"checkInHour":"15:00","checkOutHour":"12:00","distanceFromCityCenterInKM":"1km","contactDetails":{"phone":"82-347549-685233-5","email":"Duane81@yahoo.com"}},{"id":"c6f236c0-846f-4678-9299-46fa9533205a","venueId":"cf4aafc2-efaf-4011-a1aa-abeeafc4f6b1","location":{"postalCode":"97-3431","city":"South Kenny"},"pricePerNightInEUR":3329,"rating":0.7,"numberOfReviews":30,"capacity":5,"name":"Carter LLC","albumId":0,"description":"Incidunt quos nostrum dolor.\\nVoluptas fugit at animi quidem.\\nDolore eius voluptate laudantium aspernatur nostrum placeat doloremque eveniet.\\nConsequatur est consequatur labore vitae occaecati alias at consectetur soluta.\\nError atque veritatis in necessitatibus sed occaecati praesentium ratione.","features":["rectangular","complicated","overlooked","bland"],"sleepingDetails":{"maxCapacity":2,"amountOfBeds":4},"checkInHour":"15:00","checkOutHour":"12:00","distanceFromCityCenterInKM":"9km","contactDetails":{"phone":"91-939782-882656-0","email":"Milan.Carter25@gmail.com"}},{"id":"acb76524-11fa-4435-b304-9be56a84ec9e","venueId":"4eff03e3-d311-4ec4-ad93-70b9cdcbdbac","location":{"postalCode":"85-0369","city":"South Ivahworth"},"pricePerNightInEUR":1116,"rating":0.8,"numberOfReviews":122,"capacity":7,"name":"Stracke Inc","albumId":0,"description":"Illo deserunt optio labore molestiae eos sit repudiandae consequatur.\\nDignissimos vero esse.\\nOccaecati quisquam harum harum.","features":["harmonious","sparkling","tremendous","incredible"],"sleepingDetails":{"maxCapacity":2,"amountOfBeds":3},"checkInHour":"15:00","checkOutHour":"12:00","distanceFromCityCenterInKM":"9km","contactDetails":{"phone":"14-809638-018478-9","email":"Tobin_Mayert@gmail.com"}},{"id":"2bedbaba-a001-44bd-8474-2d2ce90f3335","venueId":"c91d6116-8700-47ef-9974-0cab2b9fca2a","location":{"postalCode":"29-2634","city":"Grand Forks"},"pricePerNightInEUR":1747,"rating":0.4,"numberOfReviews":8,"capacity":2,"name":"Turcotte and Sons","albumId":0,"description":"Consectetur reprehenderit repellendus recusandae fuga.\\nNobis perspiciatis quo enim quibusdam ducimus porro saepe et.\\nSit tempore beatae est repudiandae perspiciatis temporibus.","features":["made-up","giddy","distorted","far-off"],"sleepingDetails":{"maxCapacity":3,"amountOfBeds":3},"checkInHour":"15:00","checkOutHour":"12:00","distanceFromCityCenterInKM":"7km","contactDetails":{"phone":"95-003258-419436-2","email":"Alvis48@gmail.com"}},{"id":"3fe6c92a-0f90-4200-911b-0a539b3167ce","venueId":"9a020571-7c07-4666-acaa-5eb6efe6883d","location":{"postalCode":"11-2715","city":"Addisonberg"},"pricePerNightInEUR":3346,"rating":0.5,"numberOfReviews":191,"capacity":18,"name":"Ruecker, Bogan and Fisher","albumId":0,"description":"Possimus amet voluptatibus aut.\\nMolestiae ullam dolorem eligendi nulla omnis deserunt.\\nEaque assumenda sequi autem debitis molestiae est accusantium ut asperiores.","features":["avaricious","back","unlucky","square"],"sleepingDetails":{"maxCapacity":4,"amountOfBeds":1},"checkInHour":"15:00","checkOutHour":"12:00","distanceFromCityCenterInKM":"1km","contactDetails":{"phone":"70-310114-638709-3","email":"Jaron96@gmail.com"}},{"id":"2ad67847-7cc5-421a-acd7-25da4c560724","venueId":"aee8508c-d8a7-4ef5-a30d-dfd386065131","location":{"postalCode":"09-1974","city":"Gottliebstad"},"pricePerNightInEUR":901,"rating":1,"numberOfReviews":217,"capacity":12,"name":"Krajcik - Klein","albumId":0,"description":"Dignissimos aut facilis quae rem aliquam aperiam asperiores quaerat vel.\\nAt ut sunt libero at nihil doloribus delectus id earum.\\nVoluptate laboriosam iusto impedit.","features":["charming","ready","grim","popular"],"sleepingDetails":{"maxCapacity":2,"amountOfBeds":1},"checkInHour":"15:00","checkOutHour":"12:00","distanceFromCityCenterInKM":"8km","contactDetails":{"phone":"47-553232-980757-0","email":"Eulah39@yahoo.com"}},{"id":"bc080b3f-ab74-438a-bc0a-30a133257af5","venueId":"c9c62eaa-c265-4621-98eb-84c256996647","location":{"postalCode":"67-3515","city":"Lake Nelle"},"pricePerNightInEUR":1405,"rating":0.2,"numberOfReviews":16,"capacity":20,"name":"Zemlak LLC","albumId":0,"description":"Ex porro ducimus.\\nCulpa asperiores praesentium sunt.\\nItaque placeat laborum vitae eveniet animi sapiente.\\nAsperiores atque odit beatae error et perspiciatis numquam veritatis.\\nQuas praesentium placeat.","features":["starchy","tempting","difficult","astonishing"],"sleepingDetails":{"maxCapacity":1,"amountOfBeds":1},"checkInHour":"15:00","checkOutHour":"12:00","distanceFromCityCenterInKM":"10km","contactDetails":{"phone":"75-061897-193350-3","email":"Yasmeen72@gmail.com"}},{"id":"889840d4-3df6-41fe-9983-c95fa01261a8","venueId":"3600f00d-a38b-45e1-899d-74042bfce086","location":{"postalCode":"93-8842","city":"Kuhicstad"},"pricePerNightInEUR":3845,"rating":0.5,"numberOfReviews":115,"capacity":3,"name":"Abshire - Konopelski","albumId":0,"description":"Nemo quo odio atque.\\nDucimus ea omnis pariatur.\\nIllum eaque quo dolorum voluptatem.\\nEa veritatis occaecati consequuntur.","features":["superior","anchored","unlined","subtle"],"sleepingDetails":{"maxCapacity":2,"amountOfBeds":4},"checkInHour":"15:00","checkOutHour":"12:00","distanceFromCityCenterInKM":"4km","contactDetails":{"phone":"97-787375-286756-3","email":"Abigale.Feeney@hotmail.com"}},{"id":"a4913860-f48b-413d-b5bf-d7ee60e7f6d8","venueId":"756a0e9e-60ea-4906-9fef-a86271bd7b1b","location":{"postalCode":"21-6972","city":"Erdmanfield"},"pricePerNightInEUR":2993,"rating":0.7,"numberOfReviews":144,"capacity":13,"name":"Bosco, Quitzon and Wolff","albumId":0,"description":"Velit dolorem doloremque in impedit amet deserunt.\\nTemporibus reprehenderit alias incidunt dolorem adipisci.\\nAlias ullam cum nostrum doloremque non doloremque vero qui similique.","features":["rude","muddy","giving","yearly"],"sleepingDetails":{"maxCapacity":1,"amountOfBeds":2},"checkInHour":"15:00","checkOutHour":"12:00","distanceFromCityCenterInKM":"7km","contactDetails":{"phone":"75-967908-692433-3","email":"Thea66@hotmail.com"}},{"id":"05f935c6-eaf8-4888-b09c-f083c28add0a","venueId":"87660b35-3204-43bf-bccb-8af47a81cdba","location":{"postalCode":"09-9172","city":"Fort Kiel"},"pricePerNightInEUR":2457,"rating":0,"numberOfReviews":206,"capacity":19,"name":"Denesik - Streich","albumId":0,"description":"Delectus adipisci itaque porro rem consequuntur aperiam aut.\\nTempore quisquam debitis ipsam similique debitis facere nulla similique aliquid.\\nPossimus ipsam sapiente eligendi porro ut impedit doloribus laborum.\\nLaborum autem sunt delectus quia cum amet.\\nCupiditate ratione molestiae facere aperiam delectus beatae veniam ipsa mollitia.","features":["shameless","gruesome","hidden","weekly"],"sleepingDetails":{"maxCapacity":3,"amountOfBeds":4},"checkInHour":"15:00","checkOutHour":"12:00","distanceFromCityCenterInKM":"7km","contactDetails":{"phone":"94-289201-600461-7","email":"Susan.Hartmann@gmail.com"}}
  ]
}


